[{"id": "64cff47e-d513-4c7d-99fe-f35794f1583c", "code": "0384", "name": "Бул. Христо Ботев", "projectionWkt": "POINT (689670.7133379399 4730125.920838587)", "priority": "Kafka", "transportType": "TM", "latitude": 42.70022169748942, "longitude": 23.315731652577718}, {"id": "6b1d03ff-f8e5-47d9-9630-8790313d4d58", "code": "6262", "name": "Кино Арена-временна", "projectionWkt": "POINT (694745.032759761 4721801.599577039)", "priority": "Kafka", "transportType": "A", "latitude": 42.62405166625977, "longitude": 23.3747799873352}, {"id": "e6f51fd3-b29d-4621-8c0a-1e1c9900b960", "code": "0058", "name": "Автостанция Илиянци", "projectionWkt": "POINT (689896.143553609 4736172.622300576)", "priority": "Kafka", "transportType": "A", "latitude": 42.75457503000895, "longitude": 23.320510005950933}, {"id": "3cae1efd-8669-45ba-8f8a-e6da874f2ee4", "code": "1075", "name": "ДАНОН Сердика АД", "projectionWkt": "POINT (688350.7369292878 4729347.854807753)", "priority": "Kafka", "transportType": "A", "latitude": 42.693545023600265, "longitude": 23.299370002746585}, {"id": "b5c89e9d-e389-4f08-9f16-00f2ed6ef61a", "code": "2824", "name": "В.З. МАЛИНОВА ДОЛИНА", "projectionWkt": "POINT (693635.0702723137 4721049.062650508)", "priority": "Kafka", "transportType": "A", "latitude": 42.61756000518798, "longitude": 23.360999997456865}, {"id": "1c3c8e1a-d382-40bf-bf0b-84296228ad77", "code": "2446", "name": "Разклона-лифт Симеоново", "projectionWkt": "POINT (692723.1819527219 4722012.580056031)", "priority": "Kafka", "transportType": "A", "latitude": 42.62645835876465, "longitude": 23.350216674804685}, {"id": "c0d3c4b3-28a0-490c-9b22-12cd0c666ac4", "code": "2773", "name": "Ул. 24-ти май", "projectionWkt": "POINT (713165.0697672863 4735957.1698352)", "priority": "Kafka", "transportType": "A", "latitude": 42.74652500152588, "longitude": 23.604501660664884}, {"id": "357c06c0-7606-452d-bbb5-bd6a08a24a03", "code": "1736", "name": "ПГ ПО ДИЗАЙН ЕЛИСАВЕТА ВАЗОВА", "projectionWkt": "POINT (689000.4521747857 4727925.850764161)", "priority": "Kafka", "transportType": "A", "latitude": 42.68058999379477, "longitude": 23.3068216641744}, {"id": "8edd7bdb-0950-4352-8679-d2de240394f4", "code": "0909", "name": "Метростанция Витоша", "projectionWkt": "POINT (689962.2311176816 4725670.621678386)", "priority": "Kafka", "transportType": "A", "latitude": 42.660059992472334, "longitude": 23.317796675364182}, {"id": "9cbbd843-e782-4f2a-9abb-8a97da669914", "code": "6425", "name": "Ул. Д-р Иван Селимински", "projectionWkt": "POINT (694359.6969426461 4730004.747323012)", "priority": "Kafka", "transportType": "A", "latitude": 42.69796002705892, "longitude": 23.372891680399583}, {"id": "5fbdf1bd-2803-419b-82f7-e262e38899d8", "code": "2380", "name": "ЮЖЕН ПАРК", "projectionWkt": "POINT (689211.9764305952 4727261.874093813)", "priority": "Kafka", "transportType": "A", "latitude": 42.674563344319665, "longitude": 23.309180005391433}, {"id": "f450f564-9be2-465c-bfb4-fea6be43e3b8", "code": "1498", "name": "Самоковско шосе", "projectionWkt": "POINT (697366.6094600995 4723163.267131764)", "priority": "Kafka", "transportType": "A", "latitude": 42.63563664754232, "longitude": 23.40719334284465}, {"id": "52892b7e-39d1-445e-b6d6-761f50b15fa3", "code": "1309", "name": "Пл. Сред село", "projectionWkt": "POINT (683887.9790033246 4725638.182027557)", "priority": "Kafka", "transportType": "A", "latitude": 42.661243311564135, "longitude": 23.24372833569845}, {"id": "26f6aaa8-02a7-4e5e-9ea6-990a2b8474ee", "code": "2839", "name": "РЕЗИДЕНШЪЛ ПАРК СОФИЯ", "projectionWkt": "POINT (694567.1243003191 4721697.323031681)", "priority": "Kafka", "transportType": "A", "latitude": 42.62315832773845, "longitude": 23.372576681772866}, {"id": "eafa5edd-0be7-47ca-b706-2a5af50919ae", "code": "6239", "name": "ХЮНДАЙ БЪЛГАРИЯ", "projectionWkt": "POINT (689756.4005352193 4734944.631912787)", "priority": "Kafka", "transportType": "TM", "latitude": 42.74356002807617, "longitude": 23.318391672770183}, {"id": "51fa0de5-bd66-4b86-ad62-f87bf7f8854b", "code": "1114", "name": "НАДЛЕЗ НАДЕЖДА", "projectionWkt": "POINT (689321.1846689167 4731739.630072727)", "priority": "Kafka", "transportType": "TB", "latitude": 42.71482836405437, "longitude": 23.312006664276115}, {"id": "801ebc54-0e72-428c-a7d7-ec07aba7bbfc", "code": "2360", "name": "Ул. Люляк", "projectionWkt": "POINT (701947.1534016676 4727963.839685674)", "priority": "Kafka", "transportType": "A", "latitude": 42.67764167785645, "longitude": 23.464716657002768}, {"id": "5c205b9a-37c6-45be-b5ca-01ef91e5269b", "code": "0626", "name": "Ж.К. ИВАН ВАЗОВ", "projectionWkt": "POINT (688750.3348997553 4727310.579270638)", "priority": "Kafka", "transportType": "A", "latitude": 42.675115013122564, "longitude": 23.303566678365065}, {"id": "344c7a17-19dd-4a08-b270-7d7f8d69fde6", "code": "2593", "name": "ХЕРМЕС ПАРК", "projectionWkt": "POINT (695177.7082545725 4725763.590040452)", "priority": "Kafka", "transportType": "TB", "latitude": 42.65959167480468, "longitude": 23.381411679585767}, {"id": "c004a20e-8c82-4405-8728-7bfff2fb0ca7", "code": "1678", "name": "Ул. 19", "projectionWkt": "POINT (677651.928158603 4718905.777900271)", "priority": "Kafka", "transportType": "A", "latitude": 42.60212167104085, "longitude": 23.165590000152587}, {"id": "100924c9-1db9-42e4-9c66-2e74d2ff48ef", "code": "1287", "name": "ПЛ. ОРЛОВ МОСТ", "projectionWkt": "POINT (691584.2616431492 4728979.325193132)", "priority": "Kafka", "transportType": "A", "latitude": 42.68942998250325, "longitude": 23.338688341776532}, {"id": "474f59aa-9f84-420d-8cd6-e5732310a79f", "code": "6566", "name": "Дендрариум", "projectionWkt": "POINT (682853.9393338069 4722070.899049617)", "priority": "Kafka", "transportType": "A", "latitude": 42.629388364156085, "longitude": 23.2299733320872}, {"id": "a698d9b4-3afe-4c75-835e-df82eeaa152b", "code": "0463", "name": "Гара Пионер", "projectionWkt": "POINT (691548.1361163385 4726398.335366308)", "priority": "Kafka", "transportType": "A", "latitude": 42.66621500651042, "longitude": 23.33737665812175}, {"id": "c82a8ad4-2095-4e7d-9824-d32709fada43", "code": "0161", "name": "Бл. 206 ж.к. Младост 2", "projectionWkt": "POINT (694132.0080768695 4723806.536877955)", "priority": "Kafka", "transportType": "A", "latitude": 42.6422466913859, "longitude": 23.36799500783285}, {"id": "539ba947-67e0-4792-8d25-23a0826f1f31", "code": "2294", "name": "Фохар АД", "projectionWkt": "POINT (687383.6540122493 4723646.338254662)", "priority": "Kafka", "transportType": "A", "latitude": 42.642476654052736, "longitude": 23.285691674550367}, {"id": "daa4fa50-d7ba-4eb0-9cb7-7d35ba904609", "code": "2105", "name": "УЛ. ОХРИД", "projectionWkt": "POINT (689437.9898511021 4731045.836744782)", "priority": "Kafka", "transportType": "TB", "latitude": 42.708556683858234, "longitude": 23.31319999694825}, {"id": "c906c16e-6d7f-4128-879e-93e3431c9ec4", "code": "0720", "name": "НУ ПО ТАНЦОВО ИЗКУСТВО", "projectionWkt": "POINT (693812.0744124993 4727805.350139347)", "priority": "Kafka", "transportType": "TB", "latitude": 42.6783083597819, "longitude": 23.365460014343267}, {"id": "65f4ec55-ae33-4a26-8740-720525b35eab", "code": "1702", "name": "Промишлена зона Казичене", "projectionWkt": "POINT (700640.8481585135 4726781.809967363)", "priority": "Kafka", "transportType": "A", "latitude": 42.667348353068036, "longitude": 23.44837001164755}, {"id": "0a7d1caf-1259-4d0f-a406-90fe10b37205", "code": "1433", "name": "Ул. Родина", "projectionWkt": "POINT (674429.6111570868 4730606.479762414)", "priority": "Kafka", "transportType": "A", "latitude": 42.70815664927165, "longitude": 23.129928334554037}, {"id": "b74e9e61-abc2-474a-9295-03a95124a4f9", "code": "0141", "name": "БЛ. 155, Ж.К. ДРУЖБА 1", "projectionWkt": "POINT (696541.6501654276 4725611.372251545)", "priority": "Kafka", "transportType": "A", "latitude": 42.657874997456865, "longitude": 23.397986666361483}, {"id": "8425560b-af0e-497d-8260-ff4854fedce9", "code": "6507", "name": "МЕТРОСТАНЦИА К. ВЕЛИЧКОВ", "projectionWkt": "POINT (688267.6626542098 4730271.502695658)", "priority": "Kafka", "transportType": "A", "latitude": 42.70187664031982, "longitude": 23.298663330078135}, {"id": "c605eadc-ee82-4f62-aedc-51c8d3a1ea90", "code": "0273", "name": "БУЛ. АКАД. ИВАН ГЕШОВ", "projectionWkt": "POINT (688461.1200676009 4728626.094720447)", "priority": "Kafka", "transportType": "TM", "latitude": 42.68702335357667, "longitude": 23.300476678212483}, {"id": "61a46de2-8d30-4f7f-907a-42a2effaabdf", "code": "0228", "name": "БЛ. 505 Ж.К. ОВЧА КУПЕЛ-1", "projectionWkt": "POINT (684788.9167303075 4728373.506895148)", "priority": "Kafka", "transportType": "TB", "latitude": 42.68564167022705, "longitude": 23.255603329340616}, {"id": "f2cfe7ec-e689-4300-8760-30b7d65861c9", "code": "1181", "name": "Околовръстен път", "projectionWkt": "POINT (682618.3021810075 4729452.340407034)", "priority": "Kafka", "transportType": "A", "latitude": 42.69586836496988, "longitude": 23.229475005467734}, {"id": "c2b9554c-d1f7-4eb4-bf0e-b113310e9e8d", "code": "35999", "name": "Надлез Надежда", "projectionWkt": "POINT (688905.2820526543 4731644.71481366)", "priority": "Kafka", "transportType": "TM", "latitude": 42.71407667795817, "longitude": 23.306899992624917}, {"id": "a4e1df5a-18e8-40e7-b24e-1cd2d99e9498", "code": "1173", "name": "кв.Суходол", "projectionWkt": "POINT (682673.9307547139 4729373.795299493)", "priority": "Kafka", "transportType": "A", "latitude": 42.695148340861, "longitude": 23.230128335952767}, {"id": "d7b8fa6b-6019-4f36-ae96-29bfc5c168af", "code": "2347", "name": "Център кв.Филиповци", "projectionWkt": "POINT (681957.1278538062 4732076.56802954)", "priority": "Kafka", "transportType": "A", "latitude": 42.719639968872066, "longitude": 23.222251669565832}, {"id": "4868ee3f-b592-4579-85ea-3a437bcf9141", "code": "0145", "name": "Бл. 162 ж.к. Дружба 1", "projectionWkt": "POINT (696883.7264854177 4725639.982416748)", "priority": "Kafka", "transportType": "A", "latitude": 42.658045005798336, "longitude": 23.40216665267945}, {"id": "b93869dc-6f72-44d8-b452-1b26ddee3ab6", "code": "2217", "name": "УЛ. ТОДОРИНИ КУКЛИ", "projectionWkt": "POINT (693258.2455995729 4730531.417592831)", "priority": "Kafka", "transportType": "A", "latitude": 42.70297667185465, "longitude": 23.3596350034078}, {"id": "2d5ecc45-ff6b-4c58-a7bf-52a000102ee9", "code": "1262", "name": "Петте могили", "projectionWkt": "POINT (695641.930289163 4733929.29626161)", "priority": "Kafka", "transportType": "A", "latitude": 42.732946650187166, "longitude": 23.389888318379718}, {"id": "1edc2d4e-bc48-4da9-b7e1-6b0b815e77ee", "code": "1109", "name": "СТЦ Интерпред", "projectionWkt": "POINT (692767.5668709129 4726767.618760465)", "priority": "Kafka", "transportType": "A", "latitude": 42.66923332214355, "longitude": 23.35237000783285}, {"id": "05e50a16-d800-4956-b7a9-1975599cdc41", "code": "6166", "name": "Село Чепинци", "projectionWkt": "POINT (698524.5112196634 4736820.308691297)", "priority": "Kafka", "transportType": "A", "latitude": 42.758218320210766, "longitude": 23.426084995269782}, {"id": "fdc3d5c5-53bd-4b0a-a3f0-f497fa300d49", "code": "1277", "name": "Площад Лъвов мост", "projectionWkt": "POINT (690308.8809786068 4730596.688923686)", "priority": "Kafka", "transportType": "TM", "latitude": 42.7042999903361, "longitude": 23.323674996693935}, {"id": "e0307767-649c-4ac0-a79f-6ad468472180", "code": "2295", "name": "Фохар АД", "projectionWkt": "POINT (687392.4262365368 4723655.654554687)", "priority": "Kafka", "transportType": "A", "latitude": 42.6425583521525, "longitude": 23.2858016649882}, {"id": "9315d00b-c536-46c8-b7b2-b39e3e1ac632", "code": "2530", "name": "Разклона за кв. Сеславци", "projectionWkt": "POINT (705744.5898316661 4739491.728580445)", "priority": "Kafka", "transportType": "A", "latitude": 42.78034998575847, "longitude": 23.51520999272665}, {"id": "f2867db2-5090-4566-a1b3-510ac37afb95", "code": "0163", "name": "Бл.207, ж.к. Обеля-2", "projectionWkt": "POINT (685806.4958674971 4735121.717874191)", "priority": "Kafka", "transportType": "A", "latitude": 42.74612000783285, "longitude": 23.270228322347}, {"id": "2f830365-3cd3-4e36-8d4d-cb4215edbc2c", "code": "6068", "name": "БЯЛАТА ВОДА", "projectionWkt": "POINT (683045.9919688827 4723612.834896898)", "priority": "Kafka", "transportType": "A", "latitude": 42.64321835835775, "longitude": 23.2328100045522}, {"id": "41b07bb5-4bac-4e93-adcb-4787249069b2", "code": "1707", "name": "Супермаркет", "projectionWkt": "POINT (705911.4660568031 4734637.931157292)", "priority": "Kafka", "transportType": "A", "latitude": 42.7366366704305, "longitude": 23.515480009714768}, {"id": "bcdf6d98-8496-402c-b996-78a1b0100dd3", "code": "0308", "name": "БУЛ. ГОЦЕ ДЕЛЧЕВ", "projectionWkt": "POINT (687964.371346405 4726906.714571666)", "priority": "Kafka", "transportType": "A", "latitude": 42.671673329671215, "longitude": 23.293848323822015}, {"id": "8856ebb0-73a3-4fe6-8442-142a2d3ec664", "code": "2561", "name": "СПЗ Модерно предградие", "projectionWkt": "POINT (685449.2771709411 4733945.98672876)", "priority": "Kafka", "transportType": "A", "latitude": 42.735626665751134, "longitude": 23.26548166275025}, {"id": "0fbd034c-e79e-4f7d-9585-ea61b2ab9067", "code": "2342", "name": "Център по хигиена ", "projectionWkt": "POINT (688582.7908643994 4728097.456099546)", "priority": "Kafka", "transportType": "TB", "latitude": 42.68223667144775, "longitude": 23.301784992218018}, {"id": "e6d68ddf-7576-4822-99e6-7dc40e1f4bbd", "code": "2741", "name": "Метростанция Софийска Света гора", "projectionWkt": "POINT (697512.5099346003 4727719.35270112)", "priority": "Kafka", "transportType": "A", "latitude": 42.67659333546957, "longitude": 23.410555013020833}, {"id": "6f0f3b60-7e10-41b5-b0e3-6c4baa94996f", "code": "1442", "name": "Хайдушки чукар", "projectionWkt": "POINT (693205.248359673 4718719.543892229)", "priority": "Kafka", "transportType": "A", "latitude": 42.59670664469402, "longitude": 23.354973347981765}, {"id": "d7871e60-bff3-44c4-9c6c-f3ff65b06af4", "code": "2098", "name": "ул. Освобождение", "projectionWkt": "POINT (687753.5249123111 4729438.48670721)", "priority": "Kafka", "transportType": "A", "latitude": 42.69450664520264, "longitude": 23.292114988962815}, {"id": "65d17148-e10a-489e-b683-11436faf69d0", "code": "0104", "name": "Баража яз. Пасарел", "projectionWkt": "POINT (702916.6428790549 4713763.837564308)", "priority": "Kafka", "transportType": "A", "latitude": 42.54962501525878, "longitude": 23.471478335062667}, {"id": "8ada18f6-75bd-43de-af05-00841850145d", "code": "2606", "name": "УЛ. ЛЮБЛЯНА", "projectionWkt": "POINT (685449.6107679652 4727204.881863062)", "priority": "Kafka", "transportType": "A", "latitude": 42.674966684977214, "longitude": 23.263279994328816}, {"id": "0d98cf7b-11e4-4613-aad1-4a03f77c9a6e", "code": "2225", "name": "Ул. Ученическа", "projectionWkt": "POINT (676067.9924029964 4731103.229171612)", "priority": "Kafka", "transportType": "A", "latitude": 42.71225331624348, "longitude": 23.150075006484986}, {"id": "74fce61c-236a-480f-82dd-4ab62a8c628b", "code": "1980", "name": "Ул. Кап. Димитър Списаревски", "projectionWkt": "POINT (695630.9218295999 4727238.959668094)", "priority": "Kafka", "transportType": "TM", "latitude": 42.672751681009935, "longitude": 23.387445004781082}, {"id": "61463daf-0c3d-4a48-9952-786c1c5b35f9", "code": "6322", "name": "Ул. Железопътна", "projectionWkt": "POINT (691843.6879868428 4732634.910843804)", "priority": "Kafka", "transportType": "A", "latitude": 42.7222583134969, "longitude": 23.343089993794766}, {"id": "991ab4e9-13d6-447f-9bad-8fc6b2bfb197", "code": "0282", "name": "Бул.Ал.Стамболийски", "projectionWkt": "POINT (687191.7184011798 4730220.816952077)", "priority": "Kafka", "transportType": "A", "latitude": 42.701683362325035, "longitude": 23.285520013173418}, {"id": "59728abb-ede1-4564-86e5-bbe942ec1f9a", "code": "1125", "name": "Начало кв.Гниляне", "projectionWkt": "POINT (694463.6349148129 4741903.454605429)", "priority": "Kafka", "transportType": "A", "latitude": 42.8049950281779, "longitude": 23.378251679738366}, {"id": "6937a2e8-d986-46de-a63d-645db62e0f41", "code": "0802", "name": "Кв. Абдовица", "projectionWkt": "POINT (698985.5790601114 4726318.737975403)", "priority": "Kafka", "transportType": "A", "latitude": 42.66361166636148, "longitude": 23.428026676177982}, {"id": "5015cd0d-ae56-4a45-b2af-621dfedb4658", "code": "6404", "name": "Младежки театър", "projectionWkt": "POINT (690509.0484565628 4729876.310516377)", "priority": "Kafka", "transportType": "A", "latitude": 42.697768338521314, "longitude": 23.3258749961853}, {"id": "a5364c93-c32d-4070-bfa5-aa25ceb80179", "code": "0171", "name": "БЛ. 241 Ж.К. ОБЕЛЯ 2", "projectionWkt": "POINT (686252.5987468073 4735365.443193505)", "priority": "Kafka", "transportType": "A", "latitude": 42.748204994201664, "longitude": 23.27575499216715}, {"id": "ecf1f965-99dd-41da-b063-0e6be907e1e5", "code": "2491", "name": "МЕТРОСТАНЦИЯ БИЗНЕС ПАРК", "projectionWkt": "POINT (694623.0087285738 4722255.130689724)", "priority": "Kafka", "transportType": "A", "latitude": 42.62816333770752, "longitude": 23.373448340098065}, {"id": "fb023b6a-4ab5-4898-a2a1-d5f9fc84323a", "code": "2543", "name": "Бул. Цар Борис III", "projectionWkt": "POINT (688366.0540544087 4728579.423974746)", "priority": "Kafka", "transportType": "A", "latitude": 42.686626688639315, "longitude": 23.299301656087234}, {"id": "b98ca90d-9fda-4673-b816-8feb50302330", "code": "2054", "name": "УЛ. НАРОДНО ХОРО", "projectionWkt": "POINT (685905.006294403 4727764.037380909)", "priority": "Kafka", "transportType": "A", "latitude": 42.67988834381104, "longitude": 23.26901667912802}, {"id": "9918cd56-64a2-408a-990c-c77f0cda04f4", "code": "2298", "name": "Търговски к-с Надежда", "projectionWkt": "POINT (688497.3558634052 4733034.778451736)", "priority": "Kafka", "transportType": "A", "latitude": 42.726685015360516, "longitude": 23.30238501230875}, {"id": "4558e6f6-3d36-4e1d-afb8-68cba1be5b31", "code": "0043", "name": "8-ми ДКЦ", "projectionWkt": "POINT (687571.3983637762 4733184.241800656)", "priority": "Kafka", "transportType": "A", "latitude": 42.72825667063395, "longitude": 23.291133340199785}, {"id": "96c9f1b0-d510-49e4-bd85-f471e7a5b91b", "code": "1380", "name": "НАЧАЛО С. ИВАНЯНЕ - ПО ЖЕЛАНИЕ", "projectionWkt": "POINT (678972.7453373716 4730907.596679388)", "priority": "Kafka", "transportType": "A", "latitude": 42.709821637471514, "longitude": 23.185459995269785}, {"id": "4203363c-a537-43dc-b2af-402c9806c841", "code": "1280", "name": "Пл. Македония", "projectionWkt": "POINT (689576.8507531837 4729473.214647413)", "priority": "Kafka", "transportType": "A", "latitude": 42.694371668497716, "longitude": 23.314368343353266}, {"id": "6109e1ac-537c-45b9-b262-7712c190d540", "code": "6374", "name": "Ул.Топлика-временна", "projectionWkt": "POINT (673679.3773995339 4728478.750816314)", "priority": "Kafka", "transportType": "A", "latitude": 42.6891783396403, "longitude": 23.120121669769286}, {"id": "8a19ba62-ee45-4097-a0c7-f2bf483ca6e6", "code": "6436", "name": "ПЛ. КНЯЗ АЛЕКСАНДЪР I", "projectionWkt": "POINT (690420.8239765859 4729790.71763491)", "priority": "Kafka", "transportType": "A", "latitude": 42.69702002207438, "longitude": 23.324770005544032}, {"id": "2be76193-eb9c-4a38-8524-66b6dede16ab", "code": "2323", "name": "Хотел Горна баня", "projectionWkt": "POINT (683419.4194947844 4727344.70465654)", "priority": "Kafka", "transportType": "A", "latitude": 42.67671165466308, "longitude": 23.238566668828334}, {"id": "0c3922ea-348f-4cf8-bde6-63d41ab53857", "code": "2724", "name": "ПРОМИШЛЕНА ЗОНА Ж.К. ДРУЖБА 1", "projectionWkt": "POINT (695210.2141230232 4727044.816489686)", "priority": "Kafka", "transportType": "TB", "latitude": 42.67111167907715, "longitude": 23.38224833806355}, {"id": "374a0a86-c267-4874-bbfb-1e3ec94d4a9c", "code": "1127", "name": "Начало кв.Клисура", "projectionWkt": "POINT (671658.9305984802 4731899.072284278)", "priority": "Kafka", "transportType": "A", "latitude": 42.72041333516438, "longitude": 23.096509997049967}, {"id": "b14de88a-9d31-4a30-b00c-955c35257d61", "code": "1787", "name": "Турмачка махала", "projectionWkt": "POINT (698206.7919062261 4705832.403721457)", "priority": "Kafka", "transportType": "A", "latitude": 42.479481665293385, "longitude": 23.4114166577657}, {"id": "cdf29128-7586-4fab-a62c-cd7651942962", "code": "2008", "name": "УЛ. КОСТЕНСКИ ВОДОПАД", "projectionWkt": "POINT (688468.198154952 4726293.075602464)", "priority": "Kafka", "transportType": "TB", "latitude": 42.66602834065755, "longitude": 23.29978834788005}, {"id": "3c4427aa-b0b7-419b-8270-a9840222a063", "code": "181818", "name": "депо Левски", "projectionWkt": "POINT (693986.7245818421 4731688.753795218)", "priority": "Kafka", "transportType": "TB", "latitude": 42.71320667266845, "longitude": 23.36891832351685}, {"id": "ff2c2055-faf1-4b10-84ae-800dbc95b1d9", "code": "1439", "name": "Резиденция Бояна", "projectionWkt": "POINT (686121.5570252626 4724302.438769342)", "priority": "Kafka", "transportType": "A", "latitude": 42.64868666330973, "longitude": 23.270523325602216}, {"id": "3d7beb07-2e9d-4756-8e98-10a579e85cf4", "code": "2199", "name": "Ул.Суходолски път", "projectionWkt": "POINT (681863.6565118524 4731596.081605802)", "priority": "Kafka", "transportType": "A", "latitude": 42.71533832550048, "longitude": 23.220956659317018}, {"id": "e4e3812a-f42d-4057-a5ea-5eed925441a3", "code": "1160", "name": "Металика ООД", "projectionWkt": "POINT (705928.9159240916 4734872.424786498)", "priority": "Kafka", "transportType": "A", "latitude": 42.738741683959965, "longitude": 23.515778319040933}, {"id": "4841da18-2b23-4d71-8baf-7c40bb454de5", "code": "2786", "name": "Ул. Сочи", "projectionWkt": "POINT (674759.6395439646 4730761.492405129)", "priority": "Kafka", "transportType": "A", "latitude": 42.70947666168213, "longitude": 23.134003337224325}, {"id": "94e71905-d45b-489f-b028-1e36944d1db4", "code": "1008", "name": "Лифта", "projectionWkt": "POINT (693858.7129764482 4713302.911752095)", "priority": "Kafka", "transportType": "A", "latitude": 42.54780330657958, "longitude": 23.361091677347815}, {"id": "c8090598-6fc6-4fec-bd02-8420c7a45871", "code": "1734", "name": "ТЕРСНАБ", "projectionWkt": "POINT (690660.3267900138 4734098.784306346)", "priority": "Kafka", "transportType": "A", "latitude": 42.7357250213623, "longitude": 23.329141680399584}, {"id": "db305611-14f2-462e-a21e-734528b76dc7", "code": "2062", "name": "УЛ. НИШАВА", "projectionWkt": "POINT (688790.6773858147 4726728.232221537)", "priority": "Kafka", "transportType": "TB", "latitude": 42.66986497243245, "longitude": 23.30386498769125}, {"id": "df301ad7-437e-4681-8bf1-e57909676d58", "code": "2059", "name": "Ул. Н. Коперник", "projectionWkt": "POINT (693427.6680905197 4727891.653351015)", "priority": "Kafka", "transportType": "TB", "latitude": 42.67918167114259, "longitude": 23.3608016649882}, {"id": "492ae78c-d958-4329-9da9-5ef48cd2e11f", "code": "6400", "name": "БУЛ.ПРАГА", "projectionWkt": "POINT (689577.812606942 4728944.433337235)", "priority": "Kafka", "transportType": "A", "latitude": 42.68961334228515, "longitude": 23.314203325907382}, {"id": "c63105fd-e571-4bfe-9048-7593a472b071", "code": "0331", "name": "ул. Христо Силянов", "projectionWkt": "POINT (687892.7650986642 4733744.557130654)", "priority": "Kafka", "transportType": "TM", "latitude": 42.73321997324625, "longitude": 23.295241673787434}, {"id": "ff65d7a3-e7ff-4bf8-9d22-4b45bc70f512", "code": "1107", "name": "Бл.703 ж.к.Люлин 7", "projectionWkt": "POINT (685499.9797180791 4731100.197191805)", "priority": "Kafka", "transportType": "A", "latitude": 42.7100066502889, "longitude": 23.265168333053584}, {"id": "4b6867cd-4ead-4e68-9c99-02e425dde1e3", "code": "2063", "name": "УЛ. НИШАВА", "projectionWkt": "POINT (688771.6230142878 4726665.111695042)", "priority": "Kafka", "transportType": "TB", "latitude": 42.6693016688029, "longitude": 23.303611660003668}, {"id": "9b2a1c7c-bb2c-45e6-b50b-114c1febf965", "code": "2258", "name": "Ул. Черковна", "projectionWkt": "POINT (692659.3323548008 4729442.243998654)", "priority": "Kafka", "transportType": "A", "latitude": 42.693326695760085, "longitude": 23.3519583384196}, {"id": "25e3f7d2-19f5-411e-9e45-c36bf21a6800", "code": "2097", "name": "Ул. Оряхово", "projectionWkt": "POINT (687730.7132773413 4731219.864621916)", "priority": "Kafka", "transportType": "A", "latitude": 42.7105416615804, "longitude": 23.29242668151855}, {"id": "8c851611-761b-4881-98f7-997814c844f2", "code": "2242", "name": "ул. Христо Силянов", "projectionWkt": "POINT (687935.6275223529 4733604.403752198)", "priority": "Kafka", "transportType": "TM", "latitude": 42.73194834391277, "longitude": 23.295718320210767}, {"id": "1a62b267-ff86-4b38-9857-8a558830627c", "code": "2454", "name": "Летище София Терминал 2", "projectionWkt": "POINT (697834.0355641202 4729051.114425784)", "priority": "Kafka", "transportType": "A", "latitude": 42.68849334716796, "longitude": 23.414940007527665}, {"id": "07b44dc4-60d0-497e-8890-7a3f91c106c9", "code": "6509", "name": "УЛ. 5006", "projectionWkt": "POINT (697449.8483827269 4725952.839190964)", "priority": "Kafka", "transportType": "A", "latitude": 42.66071497599283, "longitude": 23.409176667531334}, {"id": "405907a7-5bbf-43e1-8889-fee90563bca9", "code": "0533", "name": "Детски ясли", "projectionWkt": "POINT (691947.5684330242 4724365.444774647)", "priority": "Kafka", "transportType": "A", "latitude": 42.647823333740234, "longitude": 23.34156001408895}, {"id": "7b935d59-eabe-43a8-a57f-f248b5e1c59b", "code": "0789", "name": "Кантона", "projectionWkt": "POINT (679471.8705810359 4732278.847081478)", "priority": "Kafka", "transportType": "A", "latitude": 42.72204500834147, "longitude": 23.191985003153484}, {"id": "d9e2da0f-5525-43c2-97d9-6931d7eeb1df", "code": "0058", "name": "АВТОСТАНЦИЯ ИЛИЯНЦИ", "projectionWkt": "POINT (689909.227003078 4736173.34964925)", "priority": "Kafka", "transportType": "TB", "latitude": 42.754578336079916, "longitude": 23.320670000712084}, {"id": "0407283c-1842-4c05-95a7-609f1645a763", "code": "2138", "name": "Ул.Пробуда", "projectionWkt": "POINT (690483.7728113139 4734306.918128441)", "priority": "Kafka", "transportType": "A", "latitude": 42.73764165242513, "longitude": 23.327056662241617}]